City_ID,City,Country,Max Temp,Current Description,Lat,Lng,Hotel Name
2,Hermanus,ZA,57.0,clear sky,-34.4187,19.2345,Misty Waves Boutique Hotel
4,Calvinia,ZA,70.63,few clouds,-31.4707,19.776,Die Lemoenhuis
5,Atuona,PF,80.96,few clouds,-9.8,-139.0333,Villa Enata
6,Rumphi,MW,60.44,broken clouds,-11.0186,33.8575,Finst Rumphi Earthbag House Lodge
7,Broome,US,70.0,clear sky,42.2506,-75.833,Chenango Valley State Park
8,Bud,US,64.4,scattered clouds,39.446999999999996,-86.1758,Ted McQuinn Trust
9,Viedma,AR,71.6,clear sky,-40.8135,-62.9967,Hotel Cristal
12,Port Macquarie,AU,59.0,scattered clouds,-31.4333,152.9167,Rydges Port Macquarie
13,Butaritari,KI,82.15,scattered clouds,3.0707,172.7902,Isles Sunset Lodge
14,Saint George,US,82.0,clear sky,37.1041,-113.5841,Best Western Plus Abbey Inn
15,Napier,NZ,64.0,overcast clouds,-39.4833,176.9167,The Nautilus Napier
17,Ponta Do Sol,PT,62.01,overcast clouds,32.6667,-17.1,Hotel do Campo
18,Port Elizabeth,ZA,60.8,overcast clouds,-33.918,25.5701,39 On Nile Guest House
19,Urrao,CO,64.67,overcast clouds,6.3152,-76.1342,Finca Hotel Riomanso
22,Rikitea,PF,76.5,few clouds,-23.1203,-134.9692,Pension Maro'i
23,Makakilo City,US,77.0,few clouds,21.3469,-158.0858,Marriott's Ko Olina Beach Club
24,Paragominas,BR,77.63,light rain,-2.9667,-47.4833,.
25,Hobart,AU,51.8,scattered clouds,-42.8794,147.3294,Mantra on Collins Hobart
26,Ajdabiya,LY,64.08,overcast clouds,30.7554,20.2263,Almadina Hotel
27,Port Alfred,ZA,66.49,broken clouds,-33.5906,26.891,The Halyards Hotel
28,Bengkulu,ID,75.56,broken clouds,-3.8004,102.2655,Grage Hotel Bengkulu
30,Vao,NC,77.76,broken clouds,-22.6667,167.4833,Hotel Kou-Bugny
31,Kapaa,US,75.2,light rain,22.0752,-159.319,Sheraton Kauai Resort at Coconut Beach
34,Namibe,AO,80.35,overcast clouds,-15.1961,12.1522,Hotel Chik Chik Namibe
36,Thompson,CA,53.6,few clouds,55.7435,-97.8558,Burntwood Hotel
37,Dunedin,NZ,51.01,clear sky,-45.8742,170.5036,Scenic Hotel Southern Cross
38,Barcelos,PT,57.99,clear sky,41.5388,-8.6151,Hotel Do Terço
41,Siavonga,ZM,69.89,broken clouds,-16.5382,28.7088,Lavongora Waterfront Lodge
42,Vaini,TO,77.0,scattered clouds,-21.2,-175.2,Keleti Beach Resort
44,Mamallapuram,IN,78.8,few clouds,12.6264,80.1722,Radisson Blu Resort Temple Bay Mamallapuram
45,Jamestown,US,78.8,few clouds,42.097,-79.2353,Hampton Inn & Suites Jamestown
47,Olean,US,75.2,clear sky,42.0776,-78.4297,Best Western Plus University Inn
49,Jambi,ID,74.26,overcast clouds,-1.6,103.6167,ASTON Jambi Hotel & Conference Center
50,Bredasdorp,ZA,59.0,clear sky,-34.5322,20.0403,Bredasdorp Country Manor
51,Hamilton,US,66.0,overcast clouds,39.1834,-84.5333,Six Acres Bed & Breakfast
52,Codrington,AU,56.19,overcast clouds,-38.2667,141.9667,Codrington Gardens Bed And Breakfast
53,Ribeira Grande,PT,60.8,broken clouds,38.5167,-28.7,Quinta da Meia Eira
54,Rosetta,EG,62.6,clear sky,31.4044,30.4164,Green Valley
55,Comodoro Rivadavia,AR,62.6,clear sky,-45.8667,-67.5,Austral Hotel
56,Banyo,CM,77.76,broken clouds,6.75,11.8167,Motel JOMBA
57,Eydhafushi,MV,81.37,scattered clouds,5.1033,73.0708,Soneva Fushi
58,Harindanga,IN,82.4,haze,22.0383,88.3214,QARI ARIF BILLAH HOUSE. & THE INTERNATIONAL TAHFIZUL. QURAN MADRASAH MISSAIN
61,Los Llanos De Aridane,ES,69.8,few clouds,28.6585,-17.9182,Valle Aridane
66,Portland,US,55.0,broken clouds,45.5234,-122.6762,Embassy Suites by Hilton Portland Downtown
67,Oranjestad,AW,82.99,scattered clouds,12.524000000000001,-70.027,Divi Village Golf & Beach Resort
69,Reconquista,AR,82.04,broken clouds,-29.15,-59.65,Grand Hotel
70,Lorengau,PG,81.91,overcast clouds,-2.0226,147.2712,Lorengau Harbourside Hotel
72,Saint-Philippe,RE,78.8,light rain,-21.3585,55.7679,"Chambres d'hôte ""La Trinité"""
73,Hilo,US,75.2,scattered clouds,19.7297,-155.09,Hilo Hawaiian Hotel
75,Mar Del Plata,AR,64.4,moderate rain,-38.0023,-57.5575,Gran Hotel Mar del Plata
76,Mizdah,LY,55.06,broken clouds,31.4451,12.9801,محمدالمبروك الاريقط
80,San Patricio,US,88.0,clear sky,28.017,-97.5169,"Motel 6 Sinton, TX"
82,Turbat,PK,78.73,scattered clouds,26.0023,63.044,Mubashar Quarters
83,Libreville,GA,84.2,light rain,0.3925,9.4537,Hotel Re-Ndama
84,Dakar,SN,71.6,clear sky,14.6937,-17.4441,Redface Studios Meublés
86,Dangriga,BZ,87.01,scattered clouds,16.9692,-88.2321,Chaleanor Hotel
87,Tigzirt,DZ,56.95,broken clouds,36.8886,4.1198,Bloc D tazoumbirt (amar)
88,Praia,CV,73.4,clear sky,14.9215,-23.5087,LT Aparthotel
90,Acapulco,MX,87.8,clear sky,16.8634,-99.8901,HS Hotsson Smart Acapulco
92,Chuy,UY,74.28,overcast clouds,-33.6971,-53.4616,Nuevo Hotel Plaza
93,Coquimbo,CL,66.2,clear sky,-29.9533,-71.3436,Punto de encuentro
95,Lebu,CL,58.93,clear sky,-37.6167,-73.65,Hostal Las Lilas
96,Maldonado,UY,81.0,clear sky,-34.6667,-54.9167,La Cimarrona
97,Arraial Do Cabo,BR,77.0,scattered clouds,-22.9661,-42.0278,Pousada Porto Praia
99,Fortuna,US,57.99,clear sky,40.5982,-124.1573,Super 8 by Wyndham Fortuna
100,Acarau,BR,81.09,overcast clouds,-2.8856,-40.12,castelo pizzaria
103,Sao Miguel Do Araguaia,BR,75.65,overcast clouds,-13.275,-50.1628,Hotel Executivo Palace
104,Avarua,CK,80.6,broken clouds,-21.2078,-159.775,Paradise Inn
105,Sao Filipe,CV,74.75,clear sky,14.8961,-24.4956,Tortuga B&B
106,East London,ZA,66.74,broken clouds,-33.0153,27.9116,Tu Casa
107,Khartoum,SD,90.0,few clouds,15.5518,32.5324,Hotel China
108,San Cristobal,VE,89.6,scattered clouds,7.7669,-72.225,Posada Villaven C.A.
109,Cape Town,ZA,66.0,clear sky,-33.9258,18.4232,Southern Sun Waterfront Cape Town
110,Faya,SA,68.0,clear sky,18.3851,42.4509,مقبرة ال مجمل
112,Saint-Georges,GD,81.12,broken clouds,12.0564,-61.7485,Radisson Grenada Beach Resort
115,Safaga,EG,77.0,clear sky,26.7292,33.9365,Lamar Resort Abu Soma
117,Salalah,OM,78.8,clear sky,17.0151,54.0924,HAMDAN PLAZA HOTEL SALALAH
118,Cabedelo,BR,82.4,few clouds,-6.9811,-34.8339,Hotel Pigalle
119,Silao,MX,86.0,few clouds,20.9333,-101.4333,Wyndham Garden Silao Bajio Airport
120,Roma,US,77.0,clear sky,43.2128,-75.4557,Wingate By Wyndham Rome
121,Georgetown,MY,80.6,few clouds,5.4112,100.3354,Cititel Penang
122,Touros,BR,84.2,scattered clouds,-5.1989,-35.4608,INN NEW HORIZON
124,San Quintin,MX,68.68,clear sky,30.4833,-115.95,Don Eddie's Sport Fishing Center
126,Sibiti,CG,70.81,light rain,-3.6819,13.3499,"LE PAPYRUS (hôtel, bar et restaurant)"
127,Peniche,PT,61.0,overcast clouds,39.3558,-9.3811,Hotel Star inn Peniche
129,Carnarvon,AU,73.4,broken clouds,-24.8667,113.6333,Hospitality Carnarvon
130,Saldanha,ZA,62.6,overcast clouds,-33.0117,17.9442,Blue Bay Lodge
133,Sambava,MG,76.19,light rain,-14.2667,50.1667,Melrose
135,Korla,CN,52.7,overcast clouds,41.7597,86.1469,Gulisitan Hotel
137,Katherine,AU,73.4,overcast clouds,-14.4667,132.2667,Pine Tree Motel
138,Vila Velha,BR,78.01,few clouds,-20.3297,-40.2925,Quality Suites Vila Velha
139,Ujhani,IN,76.12,clear sky,28.0167,79.0167,Bhagwati Palace
140,Valparaiso,CL,73.4,clear sky,-33.0393,-71.6273,Hotel Ultramar
142,Kaitangata,NZ,51.01,clear sky,-46.2817,169.8464,Kaitangata Motor Camp
143,Isla Mujeres,MX,86.0,scattered clouds,21.2311,-86.73100000000001,Hotel La Joya Isla Mujeres
144,Impfondo,CG,71.4,overcast clouds,1.6381,18.0667,Préfecture de la Likouala
145,Cabo San Lucas,MX,88.0,scattered clouds,22.8909,-109.9124,Hotel Tesoro Los Cabos
146,Vanimo,PG,76.84,overcast clouds,-2.6741,141.3028,Vahmoneh Lodge Vanimo
148,Banes,CU,84.2,scattered clouds,20.9625,-75.7186,Hostal Iván y yailet
149,Cabuyaro,CO,89.65,few clouds,4.2817,-72.794,Hotel La Cuarta
152,New Norfolk,AU,51.01,broken clouds,-42.7826,147.0587,The Shingles Riverside Cottages
153,Puerto Ayora,EC,86.0,scattered clouds,-0.7393,-90.3518,Finch Bay Galapagos Hotel
154,Hami,CN,59.97,overcast clouds,42.8,93.45,Laoyutang Resort
155,Hithadhoo,MV,82.74,few clouds,-0.6,73.0833,Scoop Guest House
156,Dharchula,IN,56.93,clear sky,29.85,80.5333,Mahara Hotel
157,Biak,ID,75.99,overcast clouds,-0.9131,122.8766,Penginapan Kim
158,Katobu,ID,75.42,overcast clouds,-4.9408,122.5276,La Ode Husein
159,Bambous Virieux,MU,80.01,scattered clouds,-20.3428,57.7575,Casa Tia Villa
161,Boyolangu,ID,74.5,overcast clouds,-8.1181,111.8935,Yos ega cv
163,Karratha,AU,81.36,light rain,-20.7377,116.8463,ibis Styles Karratha
164,Camabatela,AO,65.26,overcast clouds,-8.1881,15.375,Pensão E Restaurantes
166,Piacabucu,BR,78.69,overcast clouds,-10.4056,-36.4344,Piaçabuçu News
169,Bitung,ID,78.85,overcast clouds,1.4451,125.1824,K2 Lembeh
170,Kruisfontein,ZA,61.0,clear sky,-34.0033,24.7314,Oyster Bay House Rental
171,San Francisco,US,62.01,broken clouds,37.7749,-122.4194,The Clift Royal Sonesta Hotel
174,Nabire,ID,74.64,moderate rain,-3.3667,135.4833,Hotel Nusantara Nabire
177,Sao Jose Da Coroa Grande,BR,79.45,scattered clouds,-8.8978,-35.1478,Crôa Mares Hotel
178,Cravo Norte,CO,78.44,overcast clouds,6.3017,-70.2041,Hotel Potosí Los Mirtos
179,Santa Rosalia,MX,82.27,clear sky,27.3167,-112.2833,Hotel Las Casitas Santa Rosalia
182,Pisco,PE,73.4,clear sky,-13.7,-76.2167,Hotel San Isidro Oficial
184,Clovis,US,72.0,clear sky,36.8252,-119.7029,"Homewood Suites by Hilton Fresno Airport/Clovis, CA"
186,Victoria,HK,69.01,light rain,22.2855,114.1577,Mini Hotel Central
187,Porto Novo,BJ,86.0,scattered clouds,6.4965,2.6036,Tour Eiffel Hotel Benin
189,Itarema,BR,80.65,overcast clouds,-2.9248,-39.9167,"Sea Lounge! Bar, Club & Restaurant"
190,Richards Bay,ZA,68.86,few clouds,-28.783,32.0377,BON Hotel Waterfront Richards Bay
193,Saint-Joseph,RE,78.8,light rain,-21.3667,55.6167,"""Plantation Bed and Breakfast"
194,Mmabatho,ZA,60.8,few clouds,-25.85,25.6333,Mahikeng Guest Apartments
195,Mecca,SA,79.7,overcast clouds,21.4267,39.8261,"Makkah Clock Royal Tower, A Fairmont Hotel"
197,Baiao,BR,80.01,overcast clouds,-2.7906,-49.6717,Hotel Eurosono
200,Airai,TL,58.44,overcast clouds,-8.9266,125.4092,Juvinal Martin
202,Qom,IR,71.31,overcast clouds,34.6401,50.8764,Qom Hotel
203,Pouembout,NC,73.96,light rain,-21.1333,164.9,Camping de Tipenga
205,Bandiagara,ML,87.94,few clouds,14.3501,-3.6104,Hotel de la Falaise
209,Sale,MA,63.0,broken clouds,34.0389,-6.8166,Hôtel Mercure Rabat Sheherazade
210,Constantine,DZ,51.8,scattered clouds,36.365,6.6147,Grand Hotel Cirta
212,Muros,ES,55.99,few clouds,42.7762,-9.0603,Apartment Av. Castelao
214,Souillac,MU,78.8,scattered clouds,-20.5167,57.5167,Shanti Maurice Resort & Spa
215,Cockburn Town,TC,77.0,scattered clouds,21.4612,-71.1419,Osprey Beach Hotel
217,San Policarpo,PH,78.39,overcast clouds,12.1791,125.5072,JM Lodge
218,Samarai,PG,79.99,overcast clouds,-10.6167,150.6667,Nuli Sapi
222,Guerrero Negro,MX,75.81,clear sky,27.9769,-114.0611,"Casa Laguna, Bed & Breakfast"
223,Mosquera,CO,59.0,scattered clouds,4.7059,-74.2302,Hotel SJ
225,Pathein,MM,76.91,clear sky,16.7833,94.7333,New Pammawaddy Hotel
226,Esperance,AU,59.0,overcast clouds,-33.8667,121.9,Hospitality Esperance
227,Castro,BR,66.83,overcast clouds,-24.7911,-50.0119,CHACARA BAILLY
231,Ilo,PE,71.6,overcast clouds,-17.6394,-71.3375,Torreblanca Hotel
232,Emporia,US,64.4,broken clouds,38.4039,-96.1817,Clarion Inn & Conference Center
233,Benjamin Constant,BR,86.0,few clouds,-4.3831,-70.0311,CASA AVALIADA
236,Tambura,SS,73.44,overcast clouds,5.6,27.4667,Rikito Lodge
238,Bintulu,MY,77.0,few clouds,3.1667,113.0333,900 Boutique INN
239,Prabumulih,ID,73.38,overcast clouds,-3.45,104.25,OYO 2722 Lemon Residence Prabumulih
241,Saint Anthony,US,66.2,broken clouds,45.0205,-93.21799999999999,Holiday Inn Express Roseville-St. Paul
243,Miandoab,IR,58.55,overcast clouds,36.9694,46.1027,موبایل جمهموری
244,Coihaique,CL,53.6,light rain,-45.5752,-72.0662,Diego De Almagro Coyhaique
246,Auki,SB,75.88,light rain,-8.7676,160.7034,Auki Motel
247,Cidreira,BR,74.66,scattered clouds,-30.1811,-50.2056,Hotel Castelo
248,Pimentel,PE,78.8,clear sky,-6.8367,-79.9342,Casona Del Muelle
249,Pandan,PH,76.75,scattered clouds,14.0453,124.1694,Bonifacio Lodge
250,Igunga,TZ,66.13,few clouds,-4.2833,33.8833,Ally yesu shop
252,Dicabisagan,PH,74.89,overcast clouds,17.0818,122.4157,Nancy Montanes Bernardo
253,Lakes Entrance,AU,60.01,overcast clouds,-37.8811,147.981,The Esplanade Resort & Spa
254,Siocon,PH,77.13,broken clouds,7.7061,122.1353,ABS Hotel
256,Bilma,NE,85.48,clear sky,18.6853,12.9164,Expeditions Ténére voyages
257,Dingle,PH,73.99,broken clouds,10.9995,122.6711,SEGAYA PROPERTY
258,Colesberg,ZA,68.5,clear sky,-30.72,25.0972,Bhelekazi Guesthouse
259,Kavieng,PG,80.4,overcast clouds,-2.5744,150.7967,Nusa Island Retreat
262,Guilin,CN,53.6,broken clouds,25.2819,110.2864,Grand 0773 Hotel
263,Gushikawa,JP,68.0,scattered clouds,26.3544,127.8686,Kirari Guest House
266,Arrecife,ES,68.0,few clouds,28.963,-13.5477,Hotel Lancelot
269,The Valley,AI,82.4,scattered clouds,18.217,-63.0578,CeBlue Villas & Beach Resort
274,Ancud,CL,60.01,light rain,-41.8697,-73.8203,Hotel Arena Gruesa
275,Naze,JP,62.53,overcast clouds,28.3667,129.4833,奄美ポートタワーホテル
279,Nieuw Amsterdam,SR,82.4,scattered clouds,5.8833,-55.0833,Hotel Stardust
280,Flin Flon,CA,50.0,overcast clouds,54.7682,-101.865,Victoria Inn Flin Flon
281,Bela,IN,81.01,broken clouds,25.9333,81.9833,Raj Bhawan
282,Urucara,BR,83.66,overcast clouds,-2.5364,-57.76,Hotel japa
283,Sikandarpur,IN,80.37,clear sky,26.05,84.05,Girdhari plywoods Mistry
284,Bethel,US,71.6,broken clouds,41.3712,-73.414,Courtyard by Marriott Danbury
287,Malkangiri,IN,82.83,overcast clouds,18.35,81.9,Girls' Hostel
290,Lompoc,US,62.6,scattered clouds,34.6391,-120.4579,Holiday Inn Express Lompoc
291,San Felipe,VE,77.58,overcast clouds,10.3399,-68.7425,Posada Llovizna Rodríguez
293,Sault Sainte Marie,CA,66.2,clear sky,46.5168,-84.3333,Comfort Inn
294,Joacaba,BR,72.01,overcast clouds,-27.1781,-51.5047,Hotel Jaraguá
295,Lampa,CL,77.0,clear sky,-33.2833,-70.9,El sueño de Lampa I y II
296,Port-Gentil,GA,78.8,light rain,-0.7193,8.7815,Fengshui Residence
297,Turayf,SA,69.8,clear sky,31.6725,38.6637,Swiss Spirit Hotel & Suites Turaif
298,Eureka,US,60.01,few clouds,40.8021,-124.1637,Eureka Inn Trademark By Wyndham
299,Santa Fe,AR,90.0,overcast clouds,-31.6333,-60.7,Conquistador Hotel
300,Amambai,BR,83.26,clear sky,-23.1042,-55.2258,Keren Hotel
301,Komsomolskiy,UZ,53.6,clear sky,40.4272,71.7189,Ikathouse
303,Cagliari,IT,51.8,clear sky,39.245,9.0912,Holiday Inn Cagliari
305,Kahului,US,78.8,few clouds,20.8947,-156.47,Maui Seaside Hotel
306,Mlowo,TZ,56.86,broken clouds,-9.0,32.9833,Mchacho Drinks & Guest house
307,Nacimiento,CL,57.2,broken clouds,-37.5,-72.6667,Residencial San Marcos
309,Chicama,PE,69.8,few clouds,-7.8447,-79.1469,Hospedaje Punta Cana PERU
310,Muisne,EC,86.0,few clouds,0.6,-80.0333,Quinta Samay
311,Taltal,CL,69.01,overcast clouds,-25.4,-70.4833,Residencial Karime
313,Itaueira,BR,88.79,overcast clouds,-7.6033,-43.0256,Pousada e Restaurante Cheiro e Sabor
315,Alindao,CF,73.74,overcast clouds,5.0267,21.2088,OCHA Alindao
320,Katsuura,JP,50.0,scattered clouds,35.1333,140.3,Katsuura Hotel Mikazuki
321,Outlook,CA,59.0,light rain,51.5001,-107.0513,Red Wheel Motel
323,Arlit,NE,87.13,scattered clouds,18.7369,7.3853,Case de Passage De la Prefecture
324,Sayyan,YE,57.61,few clouds,15.1718,44.3244,متنزه و بحيرة سيان
325,Alenquer,BR,87.8,few clouds,-1.9417,-54.7383,Josilene Castro
327,Atar,MR,85.77,clear sky,20.5169,-13.0499,Oumou Elghoura
328,Sur,OM,79.74,clear sky,22.5667,59.5289,Sur Plaza Hotel
329,Kieta,PG,79.88,light rain,-6.2167,155.6333,Uruna Bay Retreat
330,Fare,PF,81.3,clear sky,-16.7,-151.0167,Maitai Lapita Village Huahine
335,Lucapa,AO,66.13,light rain,-8.4192,20.7447,Residência Ulisses Dos Santos
338,Manokwari,ID,77.79,light rain,-0.8667,134.0833,Swiss Belhotel Manokwari
339,Maceio,BR,82.4,broken clouds,-9.6658,-35.7353,Poutur Pousada
340,High Rock,BS,75.2,broken clouds,26.6208,-78.2833,Hideaway Bahamas Beach Club
344,Balkanabat,TM,75.33,clear sky,39.5108,54.3671,Nebitchi Hotel
345,Yiyang,CN,53.64,light rain,28.5892,112.3283,Tongcheng International Hotel
346,Iberia,US,80.6,clear sky,29.9502,-91.7507,back to back rv park
347,Jackson,US,61.0,scattered clouds,42.4165,-122.8345,Agate Village Apartments
348,Praia Da Vitoria,PT,60.8,broken clouds,38.7333,-27.0667,Hotel Branco I
349,Imperatriz,BR,80.51,broken clouds,-5.5264,-47.4917,Imperial Hotel
350,Houma,US,84.0,clear sky,29.5958,-90.7195,Courtyard by Marriott Houma
351,Halifax,CA,62.6,few clouds,44.6453,-63.5724,Hotel Halifax
352,Celestun,MX,83.35,clear sky,20.8667,-90.4,Posada Lilia
357,Puerto Carreno,CO,84.85,overcast clouds,6.189,-67.4859,Casa Hotel Victoria
358,Hobyo,SO,81.23,few clouds,5.3505,48.5268,Halane Hotel and Restaurent
360,Huacho,PE,72.91,broken clouds,-11.1067,-77.605,Hotel Restaurant Turístico Casablanca
361,Padang,ID,77.0,light rain,-0.9492,100.3543,Mercure Padang
362,Nelson Bay,AU,62.01,broken clouds,-32.7167,152.15,Mantra Nelson Bay
363,Goderich,CA,80.6,overcast clouds,43.7501,-81.7165,Harmony Inn
364,Geraldton,AU,71.6,overcast clouds,-28.7667,114.6,Broadwater Mariner Resort
365,Morgan City,US,82.99,clear sky,29.6994,-91.2068,Hampton Inn & Suites Morgan City
367,Monrovia,LR,80.6,few clouds,6.3005,-10.7969,Sunset Inn
368,Sao Joao Da Barra,BR,78.8,scattered clouds,-21.6403,-41.0511,Pousada Porto De Canoas
371,Kimbe,PG,75.42,moderate rain,-5.5502,150.1429,Kimbe Bay Hotel
372,Aksu,CN,50.4,overcast clouds,41.1231,80.2644,Pudong Holiday Hotel
374,Santiago De Cuba,CU,82.4,scattered clouds,20.0247,-75.8219,Cubanacan San Felix
375,Pecos,US,88.0,clear sky,31.4229,-103.4932,Knights Inn Pecos
376,Greenfield,US,55.99,overcast clouds,42.9614,-88.0126,Brewtown Eatery Bar & Grill
378,Constitucion,CL,61.88,clear sky,-35.3333,-72.4167,Hotel Boutique Las Azucenas
379,Elat,IL,69.51,clear sky,29.5581,34.9482,Club Hotel Eilat
380,Hibbing,US,51.8,light rain,47.4272,-92.9377,Mitchell-Tappan House
382,Honiara,SB,75.67,light rain,-9.4333,159.95,Heritage Park Hotel
383,Laguna De Perlas,NI,84.2,broken clouds,12.3429,-83.6712,Hotel Best View
384,Mormugao,IN,82.4,scattered clouds,15.4,73.8,Coconut Creek Resort
385,Westport,US,66.99,clear sky,41.1415,-73.3579,The Westport Inn
386,Mpanda,TZ,64.29,light rain,-6.3655,31.0409,CH Hotel - Mpanda
387,Korhogo,CI,88.11,scattered clouds,9.45,-5.6333,Hôtel Tchinbota
388,Alta Floresta,BR,76.96,broken clouds,-9.8756,-56.0861,Floresta Amazonica Hotel
389,Cortez,US,66.2,few clouds,37.3489,-108.5859,Sand Canyon National 9 Inn
390,Umarkot,PK,81.03,clear sky,25.3616,69.7362,Al-Qamar Boys Hostel
391,Assiniboia,CA,50.0,overcast clouds,49.6334,-105.9845,Canalta Hotel Assiniboia
392,Sibu,MY,73.4,scattered clouds,2.3,111.8167,RH HOTEL (4 Star)
394,Uvira,CD,72.3,light rain,-3.4067,29.1458,Hotel Suzana
398,Tecoanapa,MX,86.13,clear sky,16.5167,-98.75,Hotel Manglares
399,Payo,ID,71.55,overcast clouds,-3.7508,103.6372,Mess keban agung
405,Vredendal,ZA,65.43,scattered clouds,-31.6683,18.5012,Tharrakamma Guest House
407,Vila,PT,53.01,scattered clouds,42.0304,-8.1588,Hotel Castrum Villae by Walk Hotels
408,Gohpur,IN,70.05,broken clouds,26.8833,93.6333,Murchana Music
409,Gazanjyk,TM,73.09,clear sky,39.2446,55.5154,Railway motel
410,Klamath Falls,US,52.0,clear sky,42.2249,-121.7817,Holiday Inn Express & Suites Klamath Falls Central
413,Bandarbeyla,SO,76.17,few clouds,9.4942,50.8122,JABIR HOTEL
414,Mahebourg,MU,78.8,scattered clouds,-20.4081,57.7,Shandrani Beachcomber Resort & Spa
416,Cayeli,TR,51.96,overcast clouds,41.0923,40.7292,Grand Cavusoglu Hotel
417,Eyl,SO,76.62,clear sky,7.9803,49.8164,Amiin Hotel
420,Kantunilkin,MX,86.0,scattered clouds,21.0917,-87.45,Posada Paraiso
421,Anloga,GH,84.2,light rain,5.7947,0.8973,Pin Drop Hotel
423,Puyang,CN,50.13,overcast clouds,29.4603,119.8861,Xianhua Sandalwood Celebrity Hotel
424,Lata,PT,59.0,overcast clouds,40.1629,-8.3327,Casa Maquia
426,Umm Lajj,SA,77.59,clear sky,25.0213,37.2685,Moon light Furnished Units
428,Gwadar,PK,78.01,clear sky,25.1216,62.3254,Sadaf Resort
430,Pontianak,ID,77.0,few clouds,-0.0333,109.3333,Aston Pontianak Hotel & Convention Center
431,Praxedis Guerrero,MX,84.0,broken clouds,31.3667,-106.0167,Iglesia Bautista Dios con Nosotros
432,Conceicao Do Araguaia,BR,80.85,broken clouds,-8.2578,-49.2647,Tarumã Tropical Hotel
433,Quatre Cocos,MU,80.01,scattered clouds,-20.2078,57.7625,Emeraude Beach Attitude Hotel
435,Jeremie,HT,77.68,overcast clouds,18.65,-74.1167,Auberge’Inn
436,Algemesi,ES,55.0,broken clouds,39.1833,-0.4333,Hotel Lluna Alzira
438,Faanui,PF,81.88,few clouds,-16.4833,-151.75,Bora-Bora Pearl Beach Resort & Spa
439,Parrita,CR,73.0,broken clouds,9.5201,-84.3225,Beso del Viento
440,Yulara,AU,60.8,scattered clouds,-25.2406,130.9889,Desert Gardens Hotel - Ayers Rock Resort
441,Caraballeda,VE,80.73,overcast clouds,10.6112,-66.8522,Hotel 15 Letras
443,San Julian,MX,85.15,clear sky,21.0167,-102.1667,La Nueva España
444,Ahuimanu,US,77.0,scattered clouds,21.4447,-157.8378,Paradise Bay Resort
445,Tabas,IR,73.09,few clouds,33.5959,56.9244,شرکت معماری مهراز شایگان آراد
446,Yenotayevka,RU,53.49,overcast clouds,47.2456,47.0281,Hotel Voyage
447,Saint-Pierre,RE,78.8,moderate rain,-21.3393,55.4781,Lindsey Hôtel
448,Port Lincoln,AU,59.88,scattered clouds,-34.7333,135.8667,Port Lincoln Hotel
449,Tasquillo,MX,85.69,clear sky,20.55,-99.3,HOTEL TASQUILLO
450,Marawi,PH,75.0,overcast clouds,7.9986,124.2928,Derogongan Residence
451,Port Shepstone,ZA,69.15,clear sky,-30.7414,30.455,My Den Beachfront Bed and Breakfast | Self-Catering
452,Wum,CM,72.52,overcast clouds,6.3833,10.0667,Wum Council Hall
453,Black River,JM,82.4,few clouds,18.0264,-77.8487,Idlers' Rest Beach Hotel
455,Kalmunai,LK,77.18,few clouds,7.4167,81.8167,VS Villa
456,Cayenne,GF,82.4,overcast clouds,4.9333,-52.3333,Hôtel Le Dronmi
457,Guarapari,BR,77.0,few clouds,-20.6667,-40.4975,Hotel Porto do Sol
458,Puerto Narino,CO,86.0,broken clouds,-3.7703,-70.3831,Eware Refugio Amazonico
460,Palauig,PH,78.17,few clouds,15.435,119.9045,Myhousebythesea
461,Mentougou,CN,54.0,scattered clouds,39.9392,116.0917,北京京西晨光饭店
462,Torit,SS,78.87,broken clouds,4.4133,32.5678,Diplomat Guest House
465,San Roque,ES,60.8,broken clouds,36.2107,-5.3842,Hotel Guadacorte Park
466,Puerto Baquerizo Moreno,EC,84.2,scattered clouds,-0.9,-89.6,Hotel los Algarrobos
467,Domoni,KM,78.44,moderate rain,-12.2569,44.5319,Al Djadid
469,Winnemucca,US,60.8,clear sky,40.973,-117.7357,Winners Inn Casino
470,Riyadh,SA,82.4,clear sky,24.6877,46.7219,InterContinental Riyadh
471,Sunnyside,US,55.4,clear sky,46.3237,-120.0087,Rodeway Inn
472,Ban Dung,TH,78.01,scattered clouds,17.699,103.2596,Heuan Na Khee
473,Gat,IL,63.0,few clouds,31.61,34.7642,OlusHome
474,Kuching,MY,77.0,few clouds,1.55,110.3333,The Ranee Boutique Suites
475,Same,TZ,66.9,overcast clouds,-4.0667,37.7333,Elephant Motel
478,Taunggyi,MM,61.57,clear sky,20.7833,97.0333,True Treasure Hotel
479,Isabela,PH,78.6,broken clouds,6.7085,121.9711,Isawad Resort
480,Alipur Chatha,PK,64.4,smoke,32.2688,73.819,Gali Baker Qasaba Wali
482,Vung Tau,VN,80.69,overcast clouds,10.345999999999998,107.0843,Green hotel
483,Ugoofaaru,MV,81.9,clear sky,5.6667,73.0,Ungoofaaru Inn
485,Gravelbourg,CA,50.0,overcast clouds,49.8834,-106.5512,Historic Bishops Residence Bed & Breakfast
486,Axim,GH,81.12,light rain,4.8699,-2.2405,AXIM BEACH RESORT AND SPA
489,Mount Gambier,AU,53.6,broken clouds,-37.8333,140.7667,Commodore on the Park
490,Carupano,VE,82.2,overcast clouds,10.6678,-63.2585,Hotel La dorada
492,Tezu,IN,72.59,overcast clouds,27.9167,96.1667,Circuit House
493,Bani,DO,80.6,broken clouds,18.2833,-70.3333,Hospedaje Henriquez
494,Port Blair,IN,80.33,clear sky,11.6667,92.75,Welcomhotel Bay Island Port Blair
495,Kupang,ID,76.86,scattered clouds,-10.1667,123.5833,Hotel On The Rock by Prasanthi
496,Owando,CG,72.28,overcast clouds,-0.4819,15.8999,Exaunel Hotel Owando
497,Bato,PH,71.89,overcast clouds,13.3528,123.3677,Casa de Piedra
499,Lagoa,PT,58.84,clear sky,39.05,-27.9833,Casa Das Faias
500,Poum,NC,77.25,light rain,-20.2333,164.0167,Gîte kajeon
502,Wahiawa,US,75.2,few clouds,21.5028,-158.0236,Aloha Wahiawa
504,Hervey Bay,AU,69.01,clear sky,-25.2986,152.8535,Shelly Bay Resort
505,Alto Araguaia,BR,74.66,heavy intensity rain,-17.3147,-53.2153,Araguaia Palace Hotel
506,Limbang,MY,77.0,broken clouds,4.75,115.0,Purnama Hotel
507,Mankono,CI,83.88,broken clouds,8.0586,-6.1897,Hotel Cajoux
509,The Pas,CA,50.0,clear sky,53.8251,-101.2541,Wescana Inn
511,Mareeba,AU,71.6,overcast clouds,-17.0,145.4333,Trinity Plains Tourist Park
512,La Libertad,EC,84.2,clear sky,-2.2333,-80.9,Playa Canela Hotel Boutique
513,Luganville,VU,81.73,overcast clouds,-15.5333,167.1667,The Espiritu Hotel
515,Iskandar,UZ,55.4,clear sky,41.5539,69.7008,Forel мехмонхонаси
516,Macia,MZ,68.47,clear sky,-25.0269,33.0989,Tuck shop my life dcoza
518,Vila Franca Do Campo,PT,60.8,broken clouds,37.7167,-25.4333,Pestana Bahia Praia
523,Tondi,IN,81.5,few clouds,9.7333,79.0167,Amal Apartments
524,Masvingo,ZW,59.67,clear sky,-20.0637,30.8277,River Side Lodge
526,Nhulunbuy,AU,73.4,overcast clouds,-12.2333,136.7667,East Arnhem Real Estate
528,Coahuayana,MX,87.8,scattered clouds,18.7333,-103.6833,El rranchito michuacan de ocampos
529,Nambucca Heads,AU,59.0,few clouds,-30.65,153.0,Marcel Towers Holiday Apartments
530,Tabuk,PH,72.73,overcast clouds,17.4189,121.4443,Golden Berries Hotel and Convention
531,Tura,IN,71.46,clear sky,25.5198,90.2201,Hotel RIKMAN Continental
532,Barabai,ID,72.91,overcast clouds,-2.5833,115.3833,HOTEL BOURAQ INDAH PERMAI
533,Quang Ngai,VN,71.08,scattered clouds,15.1167,108.8,Central Hotel
537,Gunnedah,AU,57.0,scattered clouds,-30.9833,150.25,Gunnedah Motor Inn
539,Amahai,ID,84.99,overcast clouds,-3.3333,128.9167,HOTEL ISABELA
540,Wenling,CN,57.0,overcast clouds,28.3669,121.36,Hanting Express Wenling Wanchang North Road
543,Kawalu,ID,71.82,overcast clouds,-7.3817,108.2082,KOSAN UNGU UNSIK
544,Kununurra,AU,73.4,broken clouds,-15.7667,128.7333,Hotel Kununurra
545,Carnduff,CA,63.0,clear sky,49.1667,-101.8009,Western Star All Suites Hotel Carnduff
546,Yinchuan,CN,50.0,overcast clouds,38.4681,106.2731,JJ Inns - Yinchuan New Moon Square Branch
547,Quelimane,MZ,77.0,few clouds,-17.8786,36.8883,Hotel Flamingo
548,Shahr-E Babak,IR,60.57,clear sky,30.1165,55.1186,اقامتگاه گردشگری دوناdunagarden ecolodge
549,Ashtabula,US,82.4,clear sky,41.7001,-80.7665,DFC Mobile Home Park & Sales
550,Jogindarnagar,IN,58.64,clear sky,31.9833,76.7667,Hotel Anshdeep
554,Touho,NC,73.89,light rain,-20.7833,165.2333,Auberge Timay Evasion
555,Gizo,SB,80.87,light rain,-8.103,156.8419,Imagination Island
556,Teknaf,BD,74.07,clear sky,20.8624,92.3058,Forestry Guesthouse
558,Kota Tinggi,MY,80.6,scattered clouds,1.7381,103.8999,Canopy Tribe
559,Beidao,CN,52.45,overcast clouds,34.5686,105.8933,Shell Tianshui Maiji District Erma Road Walking Street Hotel
561,Ko Samui,TH,83.08,scattered clouds,9.5357,99.9357,"The Passage Samui Villas & Resort, Thailand"
562,Darlawn,IN,62.02,clear sky,24.0167,92.9,BNRGSK BUILDING
563,Ambulu,ID,75.67,overcast clouds,-8.345,113.6058,Hotel Ambulu Jember
564,Half Moon Bay,US,66.0,haze,37.4636,-122.4286,"The Ritz-Carlton, Half Moon Bay"
568,Laem Sing,TH,78.01,few clouds,12.4816,102.0738,Laemsing Whitehouse Resort
569,Mumbwa,ZM,59.92,broken clouds,-14.9783,27.0619,Mumbwa Motel
571,Kavaratti,IN,82.94,few clouds,10.5669,72.642,Hotels in Lakshadweep Islands
572,Galveston,US,84.99,few clouds,29.3669,-94.9669,Comfort Inn & Suites Texas City
573,Antofagasta,CL,68.0,broken clouds,-23.65,-70.4,Holiday Inn Express Antofagasta
574,Bathsheba,BB,84.2,few clouds,13.2167,-59.5167,Atlantis Hotel
576,Harper,LR,79.61,light rain,4.375,-7.7169,Screensaver
581,Evinayong,GQ,69.49,moderate rain,1.4368,10.5512,Hotel Don Patricio
582,Buin,CL,73.4,scattered clouds,-33.7333,-70.75,Paihuen
583,Tautira,PF,86.0,scattered clouds,-17.7333,-149.15,Pension Oaoa
584,Porto Velho,BR,89.6,scattered clouds,-8.7619,-63.9039,Hotel Central
589,Necochea,AR,64.0,light rain,-38.5473,-58.7368,dyd -mar Hotel
592,Wanaka,NZ,53.08,clear sky,-44.7,169.15,Wanaka Homestead Lodge and Cottages
593,Grand Gaube,MU,80.01,overcast clouds,-20.0064,57.6608,Veranda Paul et Virginie Hotel & Spa
594,Brokopondo,SR,78.89,overcast clouds,4.75,-55.1667,Matu Island
595,Auburn,US,55.0,scattered clouds,47.3073,-122.2284,La Quinta Inn & Suites by Wyndham Auburn
597,George Town,MY,80.6,few clouds,5.4112,100.3354,Cititel Penang
598,Tucurui,BR,82.51,broken clouds,-3.7661,-49.6725,BBB Rooms Centro Tucurui PA
599,North Bend,US,54.0,overcast clouds,43.4065,-124.2243,Red Lion Hotel Coos Bay
600,Wilmington,US,78.8,clear sky,34.2257,-77.9447,"Hotel Ballast Wilmington, Tapestry Collection by Hilton"
601,Fort-Shevchenko,KZ,62.49,clear sky,44.5086,50.263000000000005,Oasis hotel Bautino
602,Correntina,BR,82.38,overcast clouds,-13.3433,-44.6367,Hotel Pousada dos Sonhos
603,Palu,ID,74.86,overcast clouds,-0.8917,119.8707,Hotel Santika Palu
604,Inirida,CO,78.06,overcast clouds,3.8653,-67.9239,Fuente del Guania Hotel de Lujo
605,Miyoshi,JP,51.8,few clouds,35.0833,137.0667,豊田 ホテルマイン
607,Rio Grande,BR,80.6,clear sky,-32.035,-52.0986,Hotel Atlântico Rio Grande
609,Kapit,MY,72.77,overcast clouds,2.0167,112.9333,Hotel Meligai Kapit
612,Charters Towers,AU,71.15,overcast clouds,-20.1,146.2667,Cattleman's Rest Motor Inn
613,Maputo,MZ,77.0,clear sky,-25.9653,32.5892,Pestana Rovuma
617,Great Yarmouth,GB,50.0,overcast clouds,52.6083,1.7305,Comfort Hotel Great Yarmouth
618,Angoche,MZ,75.42,overcast clouds,-16.2325,39.9086,Guest House HESADA
619,Zaragoza,ES,57.2,few clouds,41.6561,-0.8773,Hotel Goya
621,Carmelo,UY,77.0,clear sky,-33.9892,-58.2856,Los Muelles Boutique Hotel
623,Ponta Delgada,PT,60.8,broken clouds,37.7333,-25.6667,Vila Nova Hotel
624,Teeswater,CA,80.6,scattered clouds,43.9959,-81.2865,King Edward Hotel/Apartments
626,Byron Bay,AU,62.6,few clouds,-28.65,153.6167,Backpackers Inn on the Beach
627,Rosarito,MX,71.6,clear sky,32.3333,-117.0333,Hotel Festival Plaza Rosarito
628,Choa Saidan Shah,PK,64.4,scattered clouds,32.7201,72.9849,Office RFO RM
630,Galesong,ID,71.6,few clouds,-5.3166,119.3661,Sapriadi Appy
631,Russell,US,81.0,broken clouds,32.3502,-85.1999,Macs
635,Miles City,US,68.0,clear sky,46.4083,-105.8406,FairBridge Inn & Suites Miles City
637,Khash,IR,62.89,few clouds,28.2211,61.2158,دفتر پیشخوان دولت جمال زهی (خالد)
641,Panzhihua,CN,55.0,few clouds,26.5851,101.7128,Electric Power Hotel
645,Shymkent,KZ,51.8,clear sky,42.3,69.6,Orbita Boutique Hotel
646,Kroya,ID,77.49,overcast clouds,-7.6331,109.2461,RUSTANTO Fam
647,Contamana,PE,89.89,overcast clouds,-7.3333,-75.0167,Shiringal Touristic Park
648,Santa Maria Del Oro,MX,85.19,overcast clouds,25.9333,-105.3667,Hotel Palacio Del Sol
649,Lewistown,US,72.0,clear sky,40.5992,-77.5714,Quality Inn & Suites
650,Kirkuk,IQ,72.7,few clouds,35.4681,44.3922,تل عبدالعزيز
653,La Asuncion,VE,73.4,broken clouds,11.0333,-63.8628,Colinas de Matasiete
654,Khatima,IN,71.58,clear sky,28.9167,79.9667,Paradise Guest House and Restaurant
655,Kingaroy,AU,62.6,overcast clouds,-26.5333,151.8333,Ascot Lodge Motel Kingaroy
659,Natal,BR,84.2,scattered clouds,-5.795,-35.2094,Villa Park Hotel | Natal
661,Ponnani,IN,80.6,mist,10.767000000000001,75.9252,Rouba Residency
662,Loreto,MX,83.32,broken clouds,22.2667,-101.9667,José de Jesús Velásquez mora
663,Inverell,AU,54.0,clear sky,-29.7833,151.1167,Sapphire City Motor Inn
667,Batemans Bay,AU,62.01,light rain,-35.7167,150.1833,Batemans Bay Marina Resort
668,Eirunepe,BR,81.66,overcast clouds,-6.6603,-69.8736,Atrás de você
669,Bago,MM,78.8,few clouds,17.3367,96.4797,Jade Garden
672,Pirojpur,BD,73.78,clear sky,22.5667,89.9833,"Circuit House, Pirojpur"
674,Srandakan,ID,76.21,overcast clouds,-7.9386,110.2506,Puri Brata
676,Waingapu,ID,77.32,overcast clouds,-9.6567,120.2641,Pondok Wisata Elim
678,Senador Jose Porfirio,BR,81.23,overcast clouds,-2.5908,-51.9542,Pousada Novo Horizonte
681,Urucui,BR,83.23,broken clouds,-7.2294,-44.5561,Hotel Premium Piauí
682,San Andres,CO,86.0,broken clouds,12.5847,-81.7006,Hotel Arena Blanca
683,Hun,LY,64.89,clear sky,29.1268,15.9477,Alrwasi Hotel
684,Jvari,GE,53.6,light rain,42.7169,42.052,Savanna House
685,Colares,PT,63.0,scattered clouds,38.7992,-9.4469,Arribas Sintra Hotel
687,Illapel,CL,70.3,clear sky,-31.6308,-71.1653,Hotel Londres
688,Samana,DO,75.2,broken clouds,19.2056,-69.3369,The Bannister - Hotel & Yacht Club
690,Uturoa,PF,81.52,scattered clouds,-16.7333,-151.4333,Villa Tonoï
691,Steamboat Springs,US,57.99,scattered clouds,40.485,-106.8317,Steamboat Grand
692,Banjar,ID,78.8,few clouds,-8.19,114.9675,The Hamsa Resort
693,Hualmay,PE,72.63,broken clouds,-11.0964,-77.6139,Hotel Villa Kitzia Huacho
697,Birmitrapur,IN,74.35,clear sky,22.4,84.7667,ANUP LOMGA
698,Dwarka,IN,79.86,clear sky,22.2394,68.9678,Hotel Narayan Avezika Comfort
699,Atascadero,US,70.0,scattered clouds,35.4894,-120.6707,Holiday Inn Express & Suites Atascadero
700,Mitsamiouli,KM,82.02,light rain,-11.3847,43.2844,Foyer ADM
